{
  "data": [
    {
      "region": "NCR",
      "region_name": "National Capital Region",
      "province": "NCR",
      "city_municipality": "City of Manila",
      "is_capital": "no",
      "population_2015": "1780148",
      "land_area_sqkm": "24.98",
      "population_density": "71263",
      "google_geocode": [
        {
          "address_components": [
            {
              "long_name": "Manila",
              "short_name": "Manila",
              "types": ["locality", "political"]
            },
            {
              "long_name": "Metro Manila",
              "short_name": "NCR",
              "types": ["administrative_area_level_1", "political"]
            },
            {
              "long_name": "Philippines",
              "short_name": "PH",
              "types": ["country", "political"]
            }
          ],
          "formatted_address": "Manila, Metro Manila, Philippines",
          "geometry": {
            "bounds": {
              "northeast": {
                "lat": 14.6390175,
                "lng": 121.0261686
              },
              "southwest": {
                "lat": 14.5539791,
                "lng": 120.932951
              }
            },
            "location": {
              "lat": 14.5995124,
              "lng": 120.9842195
            },
            "location_type": "APPROXIMATE",
            "viewport": {
              "northeast": {
                "lat": 14.6390175,
                "lng": 121.0261686
              },
              "southwest": {
                "lat": 14.5539791,
                "lng": 120.932951
              }
            }
          },
          "place_id": "ChIJi8MeVwPKlzMRH8FpEHXV0Wk",
          "types": ["locality", "political"]
        }
      ]
    },
    {
      "region": "NCR",
      "region_name": "National Capital Region",
      "province": "NCR",
      "city_municipality": "Quezon City",
      "is_capital": "no",
      "population_2015": "2936116",
      "land_area_sqkm": "171.71",
      "population_density": "17099",
      "google_geocode": [
        {
          "address_components": [
            {
              "long_name": "Quezon City",
              "short_name": "QC",
              "types": ["locality", "political"]
            },
            {
              "long_name": "Metro Manila",
              "short_name": "NCR",
              "types": ["administrative_area_level_1", "political"]
            },
            {
              "long_name": "Philippines",
              "short_name": "PH",
              "types": ["country", "political"]
            }
          ],
          "formatted_address": "Quezon City, Metro Manila, Philippines",
          "geometry": {
            "bounds": {
              "northeast": {
                "lat": 14.7780362,
                "lng": 121.1346208
              },
              "southwest": {
                "lat": 14.5898851,
                "lng": 120.989787
              }
            },
            "location": {
              "lat": 14.6760413,
              "lng": 121.0437003
            },
            "location_type": "APPROXIMATE",
            "viewport": {
              "northeast": {
                "lat": 14.7780362,
                "lng": 121.1346208
              },
              "southwest": {
                "lat": 14.5898851,
                "lng": 120.989787
              }
            }
          },
          "place_id": "ChIJdXPvQgm6lzMRQD0I_tkymko",
          "types": ["locality", "political"]
        }
      ]
    },
    {
      "region": "NCR",
      "region_name": "National Capital Region",
      "province": "NCR",
      "city_municipality": "Caloocan City",
      "is_capital": "no",
      "population_2015": "1583978",
      "land_area_sqkm": "55.80",
      "population_density": "28387",
      "google_geocode": [
        {
          "address_components": [
            {
              "long_name": "Caloocan",
              "short_name": "Caloocan",
              "types": ["locality", "political"]
            },
            {
              "long_name": "Metro Manila",
              "short_name": "NCR",
              "types": ["administrative_area_level_1", "political"]
            },
            {
              "long_name": "Philippines",
              "short_name": "PH",
              "types": ["country", "political"]
            }
          ],
          "formatted_address": "Caloocan, Metro Manila, Philippines",
          "geometry": {
            "bounds": {
              "northeast": {
                "lat": 14.787331,
                "lng": 121.098969
              },
              "southwest": {
                "lat": 14.6330317,
                "lng": 120.9604979
              }
            },
            "location": {
              "lat": 14.7565784,
              "lng": 121.0449768
            },
            "location_type": "APPROXIMATE",
            "viewport": {
              "northeast": {
                "lat": 14.787331,
                "lng": 121.098969
              },
              "southwest": {
                "lat": 14.6330317,
                "lng": 120.9604979
              }
            }
          },
          "place_id": "ChIJXxuEGbWxlzMRGi0EJeJw5wU",
          "types": ["locality", "political"]
        }
      ]
    },
    {
      "region": "NCR",
      "region_name": "National Capital Region",
      "province": "NCR",
      "city_municipality": "Pasay City",
      "is_capital": "no",
      "population_2015": "416522",
      "land_area_sqkm": "13.97",
      "population_density": "29815",
      "google_geocode": [
        {
          "address_components": [
            {
              "long_name": "Pasay",
              "short_name": "Pasay",
              "types": ["locality", "political"]
            },
            {
              "long_name": "Metro Manila",
              "short_name": "NCR",
              "types": ["administrative_area_level_1", "political"]
            },
            {
              "long_name": "Philippines",
              "short_name": "PH",
              "types": ["country", "political"]
            }
          ],
          "formatted_address": "Pasay, Metro Manila, Philippines",
          "geometry": {
            "bounds": {
              "northeast": {
                "lat": 14.5616834,
                "lng": 121.0352009
              },
              "southwest": {
                "lat": 14.5010803,
                "lng": 120.9786864
              }
            },
            "location": {
              "lat": 14.5377516,
              "lng": 121.0013794
            },
            "location_type": "APPROXIMATE",
            "viewport": {
              "northeast": {
                "lat": 14.5616834,
                "lng": 121.0352009
              },
              "southwest": {
                "lat": 14.5010803,
                "lng": 120.9786864
              }
            }
          },
          "place_id": "ChIJbeLv-EnJlzMRYGYlOUfvTJU",
          "types": ["locality", "political"]
        }
      ]
    }
    ,
    {
      "region": "NCR",
      "region_name": "National Capital Region",
      "province": "NCR",
      "city_municipality": "City of Las Piñas",
      "is_capital": "no",
      "population_2015": "588894",
      "land_area_sqkm": "32.69",
      "population_density": "18014",
      "google_geocode": [
        {
          "address_components": [
            {
              "long_name": "Las Pinas",
              "short_name": "Las Pinas",
              "types": ["locality", "political"]
            },
            {
              "long_name": "Metro Manila",
              "short_name": "NCR",
              "types": ["administrative_area_level_1", "political"]
            },
            {
              "long_name": "Philippines",
              "short_name": "PH",
              "types": ["country", "political"]
            }
          ],
          "formatted_address": "Las Pinas, Metro Manila, Philippines",
          "geometry": {
            "bounds": {
              "northeast": {
                "lat": 14.4874003,
                "lng": 121.024274
              },
              "southwest": {
                "lat": 14.3916664,
                "lng": 120.9659404
              }
            },
            "location": {
              "lat": 14.444546,
              "lng": 120.9938736
            },
            "location_type": "APPROXIMATE",
            "viewport": {
              "northeast": {
                "lat": 14.4874003,
                "lng": 121.024274
              },
              "southwest": {
                "lat": 14.3916664,
                "lng": 120.9659404
              }
            }
          },
          "place_id": "ChIJbyuXNQjOlzMRS3eB0pUy8w8",
          "types": ["locality", "political"]
        }
      ]
    },
    {
      "region": "NCR",
      "region_name": "National Capital Region",
      "province": "NCR",
      "city_municipality": "City of Makati",
      "is_capital": "no",
      "population_2015": "582602",
      "land_area_sqkm": "21.57",
      "population_density": "27010",
      "google_geocode": [
        {
          "address_components": [
            {
              "long_name": "Makati",
              "short_name": "Makati",
              "types": ["locality", "political"]
            },
            {
              "long_name": "Metro Manila",
              "short_name": "NCR",
              "types": ["administrative_area_level_1", "political"]
            },
            {
              "long_name": "Philippines",
              "short_name": "PH",
              "types": ["country", "political"]
            }
          ],
          "formatted_address": "Makati, Metro Manila, Philippines",
          "geometry": {
            "bounds": {
              "northeast": {
                "lat": 14.5800008,
                "lng": 121.0675067
              },
              "southwest": {
                "lat": 14.5291846,
                "lng": 120.998873
              }
            },
            "location": {
              "lat": 14.554729,
              "lng": 121.0244452
            },
            "location_type": "APPROXIMATE",
            "viewport": {
              "northeast": {
                "lat": 14.5800008,
                "lng": 121.0675067
              },
              "southwest": {
                "lat": 14.5291846,
                "lng": 120.998873
              }
            }
          },
          "place_id": "ChIJAe2gZALJlzMRzsoweNVuBis",
          "types": ["locality", "political"]
        }
      ]
    },
    {
      "region": "NCR",
      "region_name": "National Capital Region",
      "province": "NCR",
      "city_municipality": "City of Malabon",
      "is_capital": "no",
      "population_2015": "365525",
      "land_area_sqkm": "15.71",
      "population_density": "23267",
      "google_geocode": [
        {
          "address_components": [
            {
              "long_name": "Malabon",
              "short_name": "Malabon",
              "types": ["locality", "political"]
            },
            {
              "long_name": "Metro Manila",
              "short_name": "NCR",
              "types": ["administrative_area_level_1", "political"]
            },
            {
              "long_name": "Philippines",
              "short_name": "PH",
              "types": ["country", "political"]
            }
          ],
          "formatted_address": "Malabon, Metro Manila, Philippines",
          "geometry": {
            "bounds": {
              "northeast": {
                "lat": 14.7044229,
                "lng": 121.0003253
              },
              "southwest": {
                "lat": 14.6450329,
                "lng": 120.9209347
              }
            },
            "location": {
              "lat": 14.6680747,
              "lng": 120.9658454
            },
            "location_type": "APPROXIMATE",
            "viewport": {
              "northeast": {
                "lat": 14.7044229,
                "lng": 121.0003253
              },
              "southwest": {
                "lat": 14.6450329,
                "lng": 120.9209347
              }
            }
          },
          "place_id": "ChIJbTDTbGu0lzMRevHRY44dJSA",
          "types": ["locality", "political"]
        }
      ]
    },
    {
      "region": "NCR",
      "region_name": "National Capital Region",
      "province": "NCR",
      "city_municipality": "City of Mandaluyong",
      "is_capital": "no",
      "population_2015": "386276",
      "land_area_sqkm": "9.29",
      "population_density": "41580",
      "google_geocode": [
        {
          "address_components": [
            {
              "long_name": "Mandaluyong",
              "short_name": "Mandaluyong",
              "types": ["locality", "political"]
            },
            {
              "long_name": "Metro Manila",
              "short_name": "NCR",
              "types": ["administrative_area_level_1", "political"]
            },
            {
              "long_name": "Philippines",
              "short_name": "PH",
              "types": ["country", "political"]
            }
          ],
          "formatted_address": "Mandaluyong, Metro Manila, Philippines",
          "geometry": {
            "bounds": {
              "northeast": {
                "lat": 14.6016286,
                "lng": 121.0599025
              },
              "southwest": {
                "lat": 14.5671784,
                "lng": 121.0171081
              }
            },
            "location": {
              "lat": 14.5794443,
              "lng": 121.0359174
            },
            "location_type": "APPROXIMATE",
            "viewport": {
              "northeast": {
                "lat": 14.6016286,
                "lng": 121.0599025
              },
              "southwest": {
                "lat": 14.5671784,
                "lng": 121.0171081
              }
            }
          },
          "place_id": "ChIJeZt7xzXIlzMR-DfSuchHSdw",
          "types": ["locality", "political"]
        }
      ]
    },
    {
      "region": "NCR",
      "region_name": "National Capital Region",
      "province": "NCR",
      "city_municipality": "City of Marikina",
      "is_capital": "no",
      "population_2015": "450741",
      "land_area_sqkm": "21.52",
      "population_density": "20945",
      "google_geocode": [
        {
          "address_components": [
            {
              "long_name": "Marikina",
              "short_name": "Marikina",
              "types": ["locality", "political"]
            },
            {
              "long_name": "Metro Manila",
              "short_name": "NCR",
              "types": ["administrative_area_level_1", "political"]
            },
            {
              "long_name": "Philippines",
              "short_name": "PH",
              "types": ["country", "political"]
            }
          ],
          "formatted_address": "Marikina, Metro Manila, Philippines",
          "geometry": {
            "bounds": {
              "northeast": {
                "lat": 14.6754784,
                "lng": 121.1349633
              },
              "southwest": {
                "lat": 14.6180226,
                "lng": 121.0743626
              }
            },
            "location": {
              "lat": 14.65073,
              "lng": 121.1028546
            },
            "location_type": "APPROXIMATE",
            "viewport": {
              "northeast": {
                "lat": 14.6754784,
                "lng": 121.1349633
              },
              "southwest": {
                "lat": 14.6180226,
                "lng": 121.0743626
              }
            }
          },
          "place_id": "ChIJ-QB6d6K5lzMRxi-hKfTINm0",
          "types": ["locality", "political"]
        }
      ]
    },
    {
      "region": "NCR",
      "region_name": "National Capital Region",
      "province": "NCR",
      "city_municipality": "City of Muntinlupa",
      "is_capital": "no",
      "population_2015": "504509",
      "land_area_sqkm": "39.75",
      "population_density": "12692",
      "google_geocode": [
        {
          "address_components": [
            {
              "long_name": "Muntinlupa",
              "short_name": "Muntinlupa",
              "types": ["locality", "political"]
            },
            {
              "long_name": "Metro Manila",
              "short_name": "NCR",
              "types": ["administrative_area_level_1", "political"]
            },
            {
              "long_name": "Philippines",
              "short_name": "PH",
              "types": ["country", "political"]
            }
          ],
          "formatted_address": "Muntinlupa, Metro Manila, Philippines",
          "geometry": {
            "bounds": {
              "northeast": {
                "lat": 14.4682851,
                "lng": 121.0576253
              },
              "southwest": {
                "lat": 14.348259,
                "lng": 121.0080743
              }
            },
            "location": {
              "lat": 14.4081327,
              "lng": 121.0414667
            },
            "location_type": "APPROXIMATE",
            "viewport": {
              "northeast": {
                "lat": 14.4682851,
                "lng": 121.0576253
              },
              "southwest": {
                "lat": 14.348259,
                "lng": 121.0080743
              }
            }
          },
          "place_id": "ChIJReOxxyzQlzMRE_DafOS-_VE",
          "types": ["locality", "political"]
        }
      ]
    },
    {
      "region": "NCR",
      "region_name": "National Capital Region",
      "province": "NCR",
      "city_municipality": "City of Navotas",
      "is_capital": "no",
      "population_2015": "249463",
      "land_area_sqkm": "8.94",
      "population_density": "27904",
      "google_geocode": [
        {
          "address_components": [
            {
              "long_name": "Navotas",
              "short_name": "Navotas",
              "types": ["locality", "political"]
            },
            {
              "long_name": "Metro Manila",
              "short_name": "NCR",
              "types": ["administrative_area_level_1", "political"]
            },
            {
              "long_name": "Philippines",
              "short_name": "PH",
              "types": ["country", "political"]
            }
          ],
          "formatted_address": "Navotas, Metro Manila, Philippines",
          "geometry": {
            "bounds": {
              "northeast": {
                "lat": 14.7126401,
                "lng": 120.9690644
              },
              "southwest": {
                "lat": 14.6338049,
                "lng": 120.9063256
              }
            },
            "location": {
              "lat": 14.6714904,
              "lng": 120.9398467
            },
            "location_type": "APPROXIMATE",
            "viewport": {
              "northeast": {
                "lat": 14.7126401,
                "lng": 120.9690644
              },
              "southwest": {
                "lat": 14.6338049,
                "lng": 120.9063256
              }
            }
          },
          "place_id": "ChIJL7wYP7C1lzMRE5I5ETs70mU",
          "types": ["locality", "political"]
        }
      ]
    },
    {
      "region": "NCR",
      "region_name": "National Capital Region",
      "province": "NCR",
      "city_municipality": "City of Parañaque",
      "is_capital": "no",
      "population_2015": "665822",
      "land_area_sqkm": "46.57",
      "population_density": "14297",
      "google_geocode": [
        {
          "address_components": [
            {
              "long_name": "Parañaque",
              "short_name": "Parañaque",
              "types": ["locality", "political"]
            },
            {
              "long_name": "Metro Manila",
              "short_name": "NCR",
              "types": ["administrative_area_level_1", "political"]
            },
            {
              "long_name": "Philippines",
              "short_name": "PH",
              "types": ["country", "political"]
            }
          ],
          "formatted_address": "Parañaque, Metro Manila, Philippines",
          "geometry": {
            "bounds": {
              "northeast": {
                "lat": 14.5335724,
                "lng": 121.0499327
              },
              "southwest": {
                "lat": 14.4355894,
                "lng": 120.9741128
              }
            },
            "location": {
              "lat": 14.4793095,
              "lng": 121.0198229
            },
            "location_type": "APPROXIMATE",
            "viewport": {
              "northeast": {
                "lat": 14.5335724,
                "lng": 121.0499327
              },
              "southwest": {
                "lat": 14.4355894,
                "lng": 120.9741128
              }
            }
          },
          "place_id": "ChIJCV0X-V3OlzMR5UIoC7sbBC0",
          "types": ["locality", "political"]
        }
      ]
    },
    {
      "region": "NCR",
      "region_name": "National Capital Region",
      "province": "NCR",
      "city_municipality": "City of Pasig",
      "is_capital": "no",
      "population_2015": "755300",
      "land_area_sqkm": "48.46",
      "population_density": "15586",
      "google_geocode": [
        {
          "address_components": [
            {
              "long_name": "Pasig",
              "short_name": "Pasig",
              "types": ["locality", "political"]
            },
            {
              "long_name": "Metro Manila",
              "short_name": "NCR",
              "types": ["administrative_area_level_1", "political"]
            },
            {
              "long_name": "Philippines",
              "short_name": "PH",
              "types": ["country", "political"]
            }
          ],
          "formatted_address": "Pasig, Metro Manila, Philippines",
          "geometry": {
            "bounds": {
              "northeast": {
                "lat": 14.6236335,
                "lng": 121.1109453
              },
              "southwest": {
                "lat": 14.5338901,
                "lng": 121.0513972
              }
            },
            "location": {
              "lat": 14.5763768,
              "lng": 121.0851097
            },
            "location_type": "APPROXIMATE",
            "viewport": {
              "northeast": {
                "lat": 14.6236335,
                "lng": 121.1109453
              },
              "southwest": {
                "lat": 14.5338901,
                "lng": 121.0513972
              }
            }
          },
          "place_id": "ChIJT7L3iNzHlzMRif00SysrWUo",
          "types": ["locality", "political"]
        }
      ]
    },
    {
      "region": "NCR",
      "region_name": "National Capital Region",
      "province": "NCR",
      "city_municipality": "City of San Juan",
      "is_capital": "no",
      "population_2015": "122180",
      "land_area_sqkm": "5.95",
      "population_density": "20534",
      "google_geocode": [
        {
          "address_components": [
            {
              "long_name": "San Juan",
              "short_name": "San Juan",
              "types": ["locality", "political"]
            },
            {
              "long_name": "Metro Manila",
              "short_name": "NCR",
              "types": ["administrative_area_level_1", "political"]
            },
            {
              "long_name": "Philippines",
              "short_name": "PH",
              "types": ["country", "political"]
            }
          ],
          "formatted_address": "San Juan, Metro Manila, Philippines",
          "geometry": {
            "bounds": {
              "northeast": {
                "lat": 14.6138223,
                "lng": 121.0592415
              },
              "southwest": {
                "lat": 14.5907063,
                "lng": 121.0195111
              }
            },
            "location": {
              "lat": 14.5994146,
              "lng": 121.0368893
            },
            "location_type": "APPROXIMATE",
            "viewport": {
              "northeast": {
                "lat": 14.6138223,
                "lng": 121.0592415
              },
              "southwest": {
                "lat": 14.5907063,
                "lng": 121.0195111
              }
            }
          },
          "place_id": "ChIJcRVe-CnIlzMRNPQOOXNw7ek",
          "types": ["locality", "political"]
        }
      ]
    },
    {
      "region": "NCR",
      "region_name": "National Capital Region",
      "province": "NCR",
      "city_municipality": "Taguig City",
      "is_capital": "no",
      "population_2015": "804915",
      "land_area_sqkm": "45.21",
      "population_density": "17804",
      "google_geocode": [
        {
          "address_components": [
            {
              "long_name": "Taguig",
              "short_name": "Taguig",
              "types": ["locality", "political"]
            },
            {
              "long_name": "Metro Manila",
              "short_name": "NCR",
              "types": ["administrative_area_level_1", "political"]
            },
            {
              "long_name": "Philippines",
              "short_name": "PH",
              "types": ["country", "political"]
            }
          ],
          "formatted_address": "Taguig, Metro Manila, Philippines",
          "geometry": {
            "bounds": {
              "northeast": {
                "lat": 14.5621517,
                "lng": 121.1086357
              },
              "southwest": {
                "lat": 14.4649239,
                "lng": 121.0221692
              }
            },
            "location": {
              "lat": 14.5176184,
              "lng": 121.0508645
            },
            "location_type": "APPROXIMATE",
            "viewport": {
              "northeast": {
                "lat": 14.5621517,
                "lng": 121.1086357
              },
              "southwest": {
                "lat": 14.4649239,
                "lng": 121.0221692
              }
            }
          },
          "place_id": "ChIJATD-VErPlzMRrdKYqfB6ri8",
          "types": ["locality", "political"]
        }
      ]
    },
    {
      "region": "NCR",
      "region_name": "National Capital Region",
      "province": "NCR",
      "city_municipality": "City of Valenzuela",
      "is_capital": "no",
      "population_2015": "620422",
      "land_area_sqkm": "47.02",
      "population_density": "13195",
      "google_geocode": [
        {
          "address_components": [
            {
              "long_name": "Valenzuela",
              "short_name": "Valenzuela",
              "types": ["locality", "political"]
            },
            {
              "long_name": "Metro Manila",
              "short_name": "NCR",
              "types": ["administrative_area_level_1", "political"]
            },
            {
              "long_name": "Philippines",
              "short_name": "PH",
              "types": ["country", "political"]
            }
          ],
          "formatted_address": "Valenzuela, Metro Manila, Philippines",
          "geometry": {
            "bounds": {
              "northeast": {
                "lat": 14.7533086,
                "lng": 121.0245938
              },
              "southwest": {
                "lat": 14.6686183,
                "lng": 120.9256694
              }
            },
            "location": {
              "lat": 14.7010556,
              "lng": 120.9830225
            },
            "location_type": "APPROXIMATE",
            "viewport": {
              "northeast": {
                "lat": 14.7533086,
                "lng": 121.0245938
              },
              "southwest": {
                "lat": 14.6686183,
                "lng": 120.9256694
              }
            }
          },
          "place_id": "ChIJa2ZSw_KzlzMRWH15-i2Nrwk",
          "types": ["locality", "political"]
        }
      ]
    },
    {
      "region": "NCR",
      "region_name": "National Capital Region",
      "province": "NCR",
      "city_municipality": "Municipality of Pateros",
      "is_capital": "no",
      "population_2015": "63840",
      "land_area_sqkm": "10.40",
      "population_density": "6138",
      "google_geocode": [
        {
          "address_components": [
            {
              "long_name": "Pateros",
              "short_name": "Pateros",
              "types": ["locality", "political"]
            },
            {
              "long_name": "Metro Manila",
              "short_name": "NCR",
              "types": ["administrative_area_level_1", "political"]
            },
            {
              "long_name": "Philippines",
              "short_name": "PH",
              "types": ["country", "political"]
            }
          ],
          "formatted_address": "Pateros, Metro Manila, Philippines",
          "geometry": {
            "bounds": {
              "northeast": {
                "lat": 14.5528316,
                "lng": 121.0785092
              },
              "southwest": {
                "lat": 14.5373516,
                "lng": 121.0608978
              }
            },
            "location": {
              "lat": 14.5483779,
              "lng": 121.070773
            },
            "location_type": "APPROXIMATE",
            "viewport": {
              "northeast": {
                "lat": 14.5528316,
                "lng": 121.0785092
              },
              "southwest": {
                "lat": 14.5373516,
                "lng": 121.0608978
              }
            }
          },
          "place_id": "ChIJB9wnuJrIlzMR0SeifBqaYMw",
          "types": ["locality", "political"]
        }
      ]
    }
  ]
}
